[
  {
    "filename": "https://kgniewek.pics/kgniewek.pics20190808a.webp",
    "location": "Fürstensteig, Drei Schwestern",
    "short": "Drei Schwestern",
    "province": "Liechtenstein",
    "country": "Liechtenstein",
    "date": "08-08-2019",
    "time": "17:16",
    "coordinates": [
      47.175881,
      9.573035
    ],
    "height": 1993.0,
    "difficulty": "alpine_hiking",
    "nearest_city": "Liechtenstein",
    "hike_distance_km": 6.33,
    "elevation_gain_m": 1740,
    "recommended": false
  },
  {
    "filename": "https://kgniewek.pics/kgniewek.pics20190808.webp",
    "location": "Fürstensteig, Kuhgrat, Gafleispitz view",
    "short": "Fürstensteig",
    "province": "Liechtenstein",
    "country": "Liechtenstein",
    "date": "08-08-2019",
    "time": "20:39",
    "coordinates": [
      47.166391,
      9.560943
    ],
    "height": 2061.0,
    "difficulty": "mountain_hiking",
    "nearest_city": "Liechtenstein",
    "hike_distance_km": 4.12,
    "elevation_gain_m": 1125,
    "recommended": true
  },
  {
    "filename": "https://kgniewek.pics/kgniewek.pics20190808c.webp",
    "location": "Fürstensteig, visible Nendeln & Mauren",
    "short": "Fürstensteig",
    "province": "Liechtenstein",
    "country": "Liechtenstein",
    "date": "08-08-2019",
    "time": "18:37",
    "coordinates": [
      47.182703,
      9.573635
    ],
    "height": 1640.0,
    "difficulty": "mountain_hiking",
    "nearest_city": "Feldkirch",
    "hike_distance_km": 16.52,
    "elevation_gain_m": 1940,
    "recommended": false
  },
  {
    "filename": "https://kgniewek.pics/kgniewek.pics20220707.webp",
    "location": "Landwasser Viaduct",
    "short": "Landwasser Viaduct",
    "province": "Graubünden",
    "country": "Switzerland",
    "date": "07-07-2022",
    "time": "14:39",
    "coordinates": [
      46.680937,
      9.673428
    ],
    "height": 1026.0,
    "difficulty": "hiking",
    "nearest_city": "Schmitten",
    "hike_distance_km": 5.78,
    "elevation_gain_m": 10,
    "recommended": true
  },
  {
    "filename": "https://kgniewek.pics/kgniewek.pics20220707b.webp",
    "location": "Filisur Area",
    "short": "Filisur Area",
    "province": "Graubünden",
    "country": "Switzerland",
    "date": "07-07-2022",
    "time": "12:43",
    "coordinates": [
      46.684886,
      9.69433
    ],
    "height": 1184.0,
    "difficulty": "hiking",
    "nearest_city": "Filisur",
    "hike_distance_km": 7.29,
    "elevation_gain_m": 450,
    "recommended": true
  },
  {
    "filename": "https://kgniewek.pics/kgniewek.pics20220724.webp",
    "location": "Martrüel, near Sandhubel",
    "short": "Martrüel",
    "province": "Graubünden",
    "country": "Switzerland",
    "date": "24-07-2022",
    "time": "14:04",
    "coordinates": [
      46.726051,
      9.688267
    ],
    "height": 2379.0,
    "difficulty": "demanding_mountain_hiking",
    "nearest_city": "Davos Wiesen",
    "hike_distance_km": 5.84,
    "elevation_gain_m": 890,
    "recommended": false
  },
  {
    "filename": "https://kgniewek.pics/kgniewek.pics20220728.webp",
    "location": "Flüela Schwarzhorn",
    "short": "Flüela Schwarzhorn",
    "province": "Graubünden",
    "country": "Switzerland",
    "date": "28-07-2022",
    "time": "10:55",
    "coordinates": [
      46.73358,
      9.942282
    ],
    "height": 3059.0,
    "difficulty": "mountain_hiking",
    "nearest_city": "Susch",
    "hike_distance_km": 9.92,
    "elevation_gain_m": 1680,
    "recommended": true
  },
  {
    "filename": "https://kgniewek.pics/kgniewek.pics20220728b.webp",
    "location": "Fuorcla Radönt, near Schwarzhorn",
    "short": "Fuorcla Radönt",
    "province": "Graubünden",
    "country": "Switzerland",
    "date": "28-07-2022",
    "time": "13:25",
    "coordinates": [
      46.728061,
      9.956772
    ],
    "height": 2671.0,
    "difficulty": "mountain_hiking",
    "nearest_city": "Susch",
    "hike_distance_km": 10.82,
    "elevation_gain_m": 1610,
    "recommended": true
  },
  {
    "filename": "https://kgniewek.pics/kgniewek.pics20220731.webp",
    "location": "Via Engadina, near Maloja",
    "short": "Via Engadina",
    "province": "Graubünden",
    "country": "Switzerland",
    "date": "31-07-2022",
    "time": "13:20",
    "coordinates": [
      46.41091,
      9.698718
    ],
    "height": 1939.0,
    "difficulty": "mountain_hiking",
    "nearest_city": "Maloja",
    "hike_distance_km": 7.82,
    "elevation_gain_m": 720,
    "recommended": false
  },
  {
    "filename": "https://kgniewek.pics/kgniewek.pics20220731b.webp",
    "location": "Via Engadina",
    "short": "Via Engadina",
    "province": "Graubünden",
    "country": "Switzerland",
    "date": "31-07-2022",
    "time": "15:32",
    "coordinates": [
      46.434514,
      9.74944
    ],
    "height": 1882.0,
    "difficulty": "hiking",
    "nearest_city": "Sils/segl Baselgia",
    "hike_distance_km": 0.57,
    "elevation_gain_m": 10,
    "recommended": false
  },
  {
    "filename": "https://kgniewek.pics/kgniewek.pics20220821.webp",
    "location": "Muchetta",
    "short": "Muchetta",
    "province": "Graubünden",
    "country": "Switzerland",
    "date": "21-08-2022",
    "time": "17:50",
    "coordinates": [
      46.676119,
      9.75
    ],
    "height": 2649.0,
    "difficulty": "hiking",
    "nearest_city": "Stugl/Stuls",
    "hike_distance_km": 6.56,
    "elevation_gain_m": 1005,
    "recommended": false
  },
  {
    "filename": "https://kgniewek.pics/kgniewek.pics20220821b.webp",
    "location": "Muchetta",
    "short": "Muchetta",
    "province": "Graubünden",
    "country": "Switzerland",
    "date": "21-08-2022",
    "time": "17:32",
    "coordinates": [
      46.675237,
      9.740803
    ],
    "height": 2573.0,
    "difficulty": "hiking",
    "nearest_city": "Stugl/Stuls",
    "hike_distance_km": 7.33,
    "elevation_gain_m": 1080,
    "recommended": false
  },
  {
    "filename": "https://kgniewek.pics/kgniewek.pics20220828.webp",
    "location": "Jöriseen, on the way to Pischahorn",
    "short": "Jöriseen",
    "province": "Graubünden",
    "country": "Switzerland",
    "date": "28-08-2022",
    "time": "15:01",
    "coordinates": [
      46.792417,
      9.978679
    ],
    "height": 2220.0,
    "difficulty": "mountain_hiking",
    "nearest_city": "Klosters",
    "hike_distance_km": 8.33,
    "elevation_gain_m": 1640,
    "recommended": true
  },
  {
    "filename": "https://kgniewek.pics/kgniewek.pics20220901.webp",
    "location": "Älplihora, off-track, Fanezmeder view",
    "short": "Älplihora",
    "province": "Graubünden",
    "country": "Switzerland",
    "date": "01-09-2022",
    "time": "12:12",
    "coordinates": [
      46.699679,
      9.811575
    ],
    "height": 2450.0,
    "difficulty": "hiking",
    "nearest_city": "Davos Monstein",
    "hike_distance_km": 4.16,
    "elevation_gain_m": 1000,
    "recommended": false
  },
  {
    "filename": "https://kgniewek.pics/kgniewek.pics20220901b.webp",
    "location": "Ducantal, overlooking Hoch Dukan",
    "short": "Ducantal",
    "province": "Graubünden",
    "country": "Switzerland",
    "date": "01-09-2022",
    "time": "15:02",
    "coordinates": [
      46.69653,
      9.842775
    ],
    "height": 2221.0,
    "difficulty": "mountain_hiking",
    "nearest_city": "Clavadel",
    "hike_distance_km": 4.0,
    "elevation_gain_m": 975,
    "recommended": true
  },
  {
    "filename": "https://kgniewek.pics/kgniewek.pics20220901c.webp",
    "location": "Ducantal",
    "short": "Ducantal",
    "province": "Graubünden",
    "country": "Switzerland",
    "date": "01-09-2022",
    "time": "14:47",
    "coordinates": [
      46.690533,
      9.825154
    ],
    "height": 2497.0,
    "difficulty": "hiking",
    "nearest_city": "Clavadel",
    "hike_distance_km": 5.86,
    "elevation_gain_m": 1645,
    "recommended": false
  },
  {
    "filename": "https://kgniewek.pics/kgniewek.pics20220904.webp",
    "location": "Rosatch, overlooking Val Roseg",
    "short": "Rosatch",
    "province": "Graubünden",
    "country": "Switzerland",
    "date": "04-09-2022",
    "time": "19:46",
    "coordinates": [
      46.43083,
      9.848526
    ],
    "height": 2506.0,
    "difficulty": "mountain_hiking",
    "nearest_city": "Pontresina",
    "hike_distance_km": 16.81,
    "elevation_gain_m": 2005,
    "recommended": false
  },
  {
    "filename": "https://kgniewek.pics/kgniewek.pics20220904b.webp",
    "location": "Rosatch, overlooking Silvaplana",
    "short": "Rosatch",
    "province": "Graubünden",
    "country": "Switzerland",
    "date": "04-09-2022",
    "time": "17:11",
    "coordinates": [
      46.457604,
      9.826319
    ],
    "height": 2343.0,
    "difficulty": "mountain_hiking",
    "nearest_city": "Silvaplana-Surlej",
    "hike_distance_km": 6.07,
    "elevation_gain_m": 1065,
    "recommended": true
  },
  {
    "filename": "https://kgniewek.pics/kgniewek.pics20220905.webp",
    "location": "Piz Nair, overlooking Suvretta Pass",
    "short": "Piz Nair",
    "province": "Graubünden",
    "country": "Switzerland",
    "date": "05-09-2022",
    "time": "15:35",
    "coordinates": [
      46.50801,
      9.777583
    ],
    "height": 2821.0,
    "difficulty": "mountain_hiking",
    "nearest_city": "Samedan",
    "hike_distance_km": 8.19,
    "elevation_gain_m": 950,
    "recommended": false
  },
  {
    "filename": "https://kgniewek.pics/kgniewek.pics20220906.webp",
    "location": "Chamanna Segantini, Samedan view",
    "short": "Chamanna Segantini",
    "province": "Graubünden",
    "country": "Switzerland",
    "date": "06-09-2022",
    "time": "16:57",
    "coordinates": [
      46.509659,
      9.909422
    ],
    "height": 2608.0,
    "difficulty": "mountain_hiking",
    "nearest_city": "Samedan",
    "hike_distance_km": 12.09,
    "elevation_gain_m": 1755,
    "recommended": false
  },
  {
    "filename": "https://kgniewek.pics/kgniewek.pics20220906b.webp",
    "location": "Chamanna Segantini, Samedan view",
    "short": "Chamanna Segantini",
    "province": "Graubünden",
    "country": "Switzerland",
    "date": "06-09-2022",
    "time": "17:01",
    "coordinates": [
      46.50882,
      9.910669
    ],
    "height": 2629.0,
    "difficulty": "mountain_hiking",
    "nearest_city": "Samedan",
    "hike_distance_km": 12.13,
    "elevation_gain_m": 1760,
    "recommended": false
  },
  {
    "filename": "https://kgniewek.pics/kgniewek.pics20220907.webp",
    "location": "Chiavenna, Parco Archeologico Botanico",
    "short": "Chiavenna",
    "province": "Lombardy",
    "country": "Italy",
    "date": "07-09-2022",
    "time": "11:40",
    "coordinates": [
      46.323064,
      9.40794
    ],
    "height": 358.0,
    "difficulty": "mountain_hiking",
    "nearest_city": "Chiavenna",
    "hike_distance_km": 1.24,
    "elevation_gain_m": 285,
    "recommended": false
  },
  {
    "filename": "https://kgniewek.pics/kgniewek.pics20220907b.webp",
    "location": "Naùn, Soglio",
    "short": "Soglio",
    "province": "Graubünden",
    "country": "Switzerland",
    "date": "11-09-2022",
    "time": "17:11",
    "coordinates": [
      46.340016,
      9.542546
    ],
    "height": 1077.0,
    "difficulty": "mountain_hiking",
    "nearest_city": "Soglio",
    "hike_distance_km": 3.32,
    "elevation_gain_m": 0,
    "recommended": false
  },
  {
    "filename": "https://kgniewek.pics/kgniewek.pics20220907c.webp",
    "location": "Chiavenna, overlooking Pianazzola",
    "short": "Chiavenna",
    "province": "Lombardy",
    "country": "Italy",
    "date": "11-09-2022",
    "time": "17:11",
    "coordinates": [
      46.323599,
      9.406843
    ],
    "height": 358.0,
    "difficulty": "mountain_hiking",
    "nearest_city": "Chiavenna",
    "hike_distance_km": 1.13,
    "elevation_gain_m": 250,
    "recommended": true
  },
  {
    "filename": "https://kgniewek.pics/kgniewek.pics20220909.webp",
    "location": "Via Engadina, near Silvaplana",
    "short": "Via Engadina",
    "province": "Graubünden",
    "country": "Switzerland",
    "date": "11-09-2022",
    "time": "17:23",
    "coordinates": [
      46.473672,
      9.791652
    ],
    "height": 2251.0,
    "difficulty": "mountain_hiking",
    "nearest_city": "Silvaplana",
    "hike_distance_km": 4.79,
    "elevation_gain_m": 345,
    "recommended": true
  },
  {
    "filename": "https://kgniewek.pics/kgniewek.pics20220911.webp",
    "location": "Munt Pers, overlooking Piz Palü",
    "short": "Munt Pers",
    "province": "Graubünden",
    "country": "Switzerland",
    "date": "11-09-2022",
    "time": "17:23",
    "coordinates": [
      46.420111,
      9.95439
    ],
    "height": 3112.0,
    "difficulty": "hiking",
    "nearest_city": "Pontresina",
    "hike_distance_km": 14.64,
    "elevation_gain_m": 2320,
    "recommended": true
  },
  {
    "filename": "https://kgniewek.pics/kgniewek.pics20220911b.webp",
    "location": "Munt Pers, overlooking Piz Palü",
    "short": "Munt Pers",
    "province": "Graubünden",
    "country": "Switzerland",
    "date": "11-09-2022",
    "time": "17:56",
    "coordinates": [
      46.421597,
      9.953336
    ],
    "height": 3128.0,
    "difficulty": "hiking",
    "nearest_city": "Pontresina",
    "hike_distance_km": 14.82,
    "elevation_gain_m": 2355,
    "recommended": true
  },
  {
    "filename": "https://kgniewek.pics/kgniewek.pics20220911c.webp",
    "location": "Diavolezza, overlooking Piz Palü",
    "short": "Diavolezza",
    "province": "Graubünden",
    "country": "Switzerland",
    "date": "11-09-2022",
    "time": "16:56",
    "coordinates": [
      46.414198,
      9.96301
    ],
    "height": 2953.0,
    "difficulty": "mountain_hiking",
    "nearest_city": "Pontresina",
    "hike_distance_km": 13.3,
    "elevation_gain_m": 2060,
    "recommended": false
  },
  {
    "filename": "https://kgniewek.pics/kgniewek.pics20220911d.webp",
    "location": "Lej Minor below Piz Minor",
    "short": "Lej Minor",
    "province": "Graubünden",
    "country": "Switzerland",
    "date": "11-09-2022",
    "time": "11:11",
    "coordinates": [
      46.433058,
      10.035796
    ],
    "height": 2392.0,
    "difficulty": "hiking",
    "nearest_city": "Pontresina",
    "hike_distance_km": 12.55,
    "elevation_gain_m": 1830,
    "recommended": false
  },
  {
    "filename": "https://kgniewek.pics/kgniewek.pics20220911e.webp",
    "location": "Lago Bianco",
    "short": "Lago Bianco",
    "province": "Graubünden",
    "country": "Switzerland",
    "date": "11-09-2022",
    "time": "13:43",
    "coordinates": [
      46.414158,
      10.015185
    ],
    "height": 2214.0,
    "difficulty": "hiking",
    "nearest_city": "Pontresina",
    "hike_distance_km": 12.09,
    "elevation_gain_m": 1655,
    "recommended": true
  },
  {
    "filename": "https://kgniewek.pics/kgniewek.pics20220911f.webp",
    "location": "Sass Queder, overlooking Piz Trovat",
    "short": "Sass Queder",
    "province": "Graubünden",
    "country": "Switzerland",
    "date": "11-09-2022",
    "time": "17:56",
    "coordinates": [
      46.410983,
      9.972905
    ],
    "height": 3044.0,
    "difficulty": "demanding_mountain_hiking",
    "nearest_city": "Pontresina",
    "hike_distance_km": 12.62,
    "elevation_gain_m": 2125,
    "recommended": true
  },
  {
    "filename": "https://kgniewek.pics/kgniewek.pics20220912.webp",
    "location": "Piz Languard, overlooking Berninagruppe",
    "short": "Piz Languard",
    "province": "Graubünden",
    "country": "Switzerland",
    "date": "12-09-2022",
    "time": "16:03",
    "coordinates": [
      46.488373,
      9.956417
    ],
    "height": 3173.0,
    "difficulty": "mountain_hiking",
    "nearest_city": "Pontresina",
    "hike_distance_km": 13.13,
    "elevation_gain_m": 1860,
    "recommended": true
  },
  {
    "filename": "https://kgniewek.pics/kgniewek.pics20220913.webp",
    "location": "Piz Ot, overlooking Engadin & Berninagruppe",
    "short": "Piz Ot",
    "province": "Graubünden",
    "country": "Switzerland",
    "date": "13-09-2022",
    "time": "16:03",
    "coordinates": [
      46.543199,
      9.810193
    ],
    "height": 3172.0,
    "difficulty": "alpine_hiking",
    "nearest_city": "Bever",
    "hike_distance_km": 12.47,
    "elevation_gain_m": 2825,
    "recommended": true
  },
  {
    "filename": "https://kgniewek.pics/kgniewek.pics20220915.webp",
    "location": "Rosatch, overlooking St. Moritz",
    "short": "Rosatch",
    "province": "Graubünden",
    "country": "Switzerland",
    "date": "15-09-2022",
    "time": "14:10",
    "coordinates": [
      46.472818,
      9.849238
    ],
    "height": 2464.0,
    "difficulty": "mountain_hiking",
    "nearest_city": "St. Moritz",
    "hike_distance_km": 7.9,
    "elevation_gain_m": 1250,
    "recommended": true
  },
  {
    "filename": "https://kgniewek.pics/kgniewek.pics20220915b.webp",
    "location": "Rosatch, climbing Piz Mezdi",
    "short": "Rosatch",
    "province": "Graubünden",
    "country": "Switzerland",
    "date": "15-09-2022",
    "time": "10:54",
    "coordinates": [
      46.477724,
      9.849797
    ],
    "height": 2207.0,
    "difficulty": "mountain_hiking",
    "nearest_city": "St. Moritz",
    "hike_distance_km": 6.98,
    "elevation_gain_m": 1005,
    "recommended": false
  },
  {
    "filename": "https://kgniewek.pics/kgniewek.pics20220917.webp",
    "location": "Lugano, overlooking Monte San Salvatore",
    "short": "Lugano",
    "province": "Ticino",
    "country": "Switzerland",
    "date": "17-09-2022",
    "time": "11:03",
    "coordinates": [
      46.003835,
      8.959048
    ],
    "height": 273.0,
    "difficulty": "hiking",
    "nearest_city": "Lugano",
    "hike_distance_km": 0.54,
    "elevation_gain_m": 0,
    "recommended": false
  },
  {
    "filename": "https://kgniewek.pics/kgniewek.pics20220917b.webp",
    "location": "Lago Maggiore, overlooking Gambarogno",
    "short": "Lago Maggiore",
    "province": "Ticino",
    "country": "Switzerland",
    "date": "17-09-2022",
    "time": "13:34",
    "coordinates": [
      46.1546,
      8.817284
    ],
    "height": 191.0,
    "difficulty": "hiking",
    "nearest_city": "Locarno",
    "hike_distance_km": 3.04,
    "elevation_gain_m": 0,
    "recommended": true
  },
  {
    "filename": "https://kgniewek.pics/kgniewek.pics20220917c.webp",
    "location": "Lugano, overlooking Monte San Salvatore",
    "short": "Lugano",
    "province": "Ticino",
    "country": "Switzerland",
    "date": "17-09-2022",
    "time": "11:01",
    "coordinates": [
      45.997172,
      8.947573
    ],
    "height": 292.0,
    "difficulty": "hiking",
    "nearest_city": "Lugano",
    "hike_distance_km": 1.27,
    "elevation_gain_m": 240,
    "recommended": true
  },
  {
    "filename": "https://kgniewek.pics/kgniewek.pics20220917d.webp",
    "location": "Lago Maggiore, overlooking Locarno",
    "short": "Lago Maggiore",
    "province": "Ticino",
    "country": "Switzerland",
    "date": "17-09-2022",
    "time": "13:31",
    "coordinates": [
      46.135785,
      8.785419
    ],
    "height": 191.0,
    "difficulty": "hiking",
    "nearest_city": "Ascona",
    "hike_distance_km": 3.2,
    "elevation_gain_m": 0,
    "recommended": true
  },
  {
    "filename": "https://kgniewek.pics/kgniewek.pics20220901s.webp",
    "location": "Near Davos Monstein",
    "short": "Davos Monstein",
    "province": "Graubünden",
    "country": "Switzerland",
    "date": "01-09-2022",
    "time": "12:43",
    "coordinates": [
      46.694777,
      9.813372
    ],
    "height": 2452.0,
    "difficulty": "hiking",
    "nearest_city": "Davos Monstein",
    "hike_distance_km": 4.74,
    "elevation_gain_m": 1070,
    "recommended": false
  },
  {
    "filename": "https://kgniewek.pics/kgniewek.pics20220906t.webp",
    "location": "Val Muragl",
    "short": "Val Muragl",
    "province": "Graubünden",
    "country": "Switzerland",
    "date": "06-09-2022",
    "time": "14:09",
    "coordinates": [
      46.517114,
      9.90735
    ],
    "height": 2268.0,
    "difficulty": "mountain_hiking",
    "nearest_city": "Samedan",
    "hike_distance_km": 9.82,
    "elevation_gain_m": 1150,
    "recommended": false
  },
  {
    "filename": "https://kgniewek.pics/kgniewek.pics20220912h.webp",
    "location": "Chamanna Georgy (Piz Languard)",
    "short": "Chamanna Georgy",
    "province": "Graubünden",
    "country": "Switzerland",
    "date": "12-09-2022",
    "time": "16:30",
    "coordinates": [
      46.486994,
      9.955312
    ],
    "height": 3103.0,
    "difficulty": "mountain_hiking",
    "nearest_city": "Pontresina",
    "hike_distance_km": 12.99,
    "elevation_gain_m": 1835,
    "recommended": false
  },
  {
    "filename": "https://kgniewek.pics/kgniewek.pics20220912i.webp",
    "location": "Val Languard, Muot dals Lejs",
    "short": "Val Languard",
    "province": "Graubünden",
    "country": "Switzerland",
    "date": "12-09-2022",
    "time": "17:27",
    "coordinates": [
      46.476737,
      9.963434
    ],
    "height": 2810.0,
    "difficulty": "hiking",
    "nearest_city": "Pontresina",
    "hike_distance_km": 12.13,
    "elevation_gain_m": 1470,
    "recommended": false
  },
  {
    "filename": "https://kgniewek.pics/kgniewek.pics20220912j.webp",
    "location": "Fuorcla Prüna, Lej de la Pisha view",
    "short": "Fuorcla Prüna",
    "province": "Graubünden",
    "country": "Switzerland",
    "date": "12-09-2022",
    "time": "17:43",
    "coordinates": [
      46.47255,
      9.975651
    ],
    "height": 2783.0,
    "difficulty": "mountain_hiking",
    "nearest_city": "Pontresina",
    "hike_distance_km": 13.46,
    "elevation_gain_m": 1585,
    "recommended": false
  },
  {
    "filename": "https://kgniewek.pics/kgniewek.pics20220912o.webp",
    "location": "Fuorcla Prüna, Piz Pischa view",
    "short": "Fuorcla Prüna",
    "province": "Graubünden",
    "country": "Switzerland",
    "date": "12-09-2022",
    "time": "17:43",
    "coordinates": [
      46.474927,
      9.972028
    ],
    "height": 2813.0,
    "difficulty": "mountain_hiking",
    "nearest_city": "Pontresina",
    "hike_distance_km": 13.32,
    "elevation_gain_m": 1585,
    "recommended": false
  },
















    {
    "filename": "/image/IMG_20250801_202429188_HDR_AE.webp",
    "location": "to be filled",
    "short": "to be filled",
    "province": "to be filled",
    "country": "to be filled",
    "date": "01-08-2025",
    "time": "20:24",
    "coordinates": [49.163721, 20.187394],
    "height": 1740.0,
    "difficulty": "mountain_hiking",
    "nearest_city": "to be filled",
    "hike_distance_km": 12.45,
    "elevation_gain_m": 840,
    "recommended": true
  },
  {
    "filename": "/image/IMG_20250802_144301243_HDR.webp",
    "location": "to be filled",
    "short": "to be filled",
    "province": "to be filled",
    "country": "to be filled",
    "date": "02-08-2025",
    "time": "14:43",
    "coordinates": [49.201342, 20.242198],
    "height": 1551.0,
    "difficulty": "hiking",
    "nearest_city": "to be filled",
    "hike_distance_km": 8.32,
    "elevation_gain_m": 620,
    "recommended": false
  },
  {
    "filename": "/image/IMG_20250803_173534943_HDR.webp",
    "location": "to be filled",
    "short": "to be filled",
    "province": "to be filled",
    "country": "to be filled",
    "date": "03-08-2025",
    "time": "17:35",
    "coordinates": [49.17944, 20.08889],
    "height": 2499.0,
    "difficulty": "demanding_mountain_hiking",
    "nearest_city": "to be filled",
    "hike_distance_km": 20.12,
    "elevation_gain_m": 1350,
    "recommended": true
  },
  {
    "filename": "/image/IMG_20250807_163400102.webp",
    "location": "to be filled",
    "short": "to be filled",
    "province": "to be filled",
    "country": "to be filled",
    "date": "07-08-2025",
    "time": "16:34",
    "coordinates": [49.23103, 19.98148],
    "height": 1987.0,
    "difficulty": "mountain_hiking",
    "nearest_city": "to be filled",
    "hike_distance_km": 12.87,
    "elevation_gain_m": 950,
    "recommended": false
  },
  {
    "filename": "/image/IMG_20250811_122543953_AE.webp",
    "location": "to be filled",
    "short": "to be filled",
    "province": "to be filled",
    "country": "to be filled",
    "date": "11-08-2025",
    "time": "12:25",
    "coordinates": [49.1675, 19.9994],
    "height": 2494.0,
    "difficulty": "demanding_mountain_hiking",
    "nearest_city": "to be filled",
    "hike_distance_km": 14.32,
    "elevation_gain_m": 1380,
    "recommended": true
  },
  {
    "filename": "/image/IMG_20250811_125512356_AE.webp",
    "location": "to be filled",
    "short": "to be filled",
    "province": "to be filled",
    "country": "to be filled",
    "date": "11-08-2025",
    "time": "12:55",
    "coordinates": [49.18025, 20.04963],
    "height": 1565.0,
    "difficulty": "hiking",
    "nearest_city": "to be filled",
    "hike_distance_km": 9.87,
    "elevation_gain_m": 620,
    "recommended": false
  },
  {
    "filename": "/image/IMG_20250811_135334976_HDR_AE.webp",
    "location": "to be filled",
    "short": "to be filled",
    "province": "to be filled",
    "country": "to be filled",
    "date": "11-08-2025",
    "time": "13:53",
    "coordinates": [49.1845, 20.04512],
    "height": 2314.0,
    "difficulty": "mountain_hiking",
    "nearest_city": "to be filled",
    "hike_distance_km": 12.15,
    "elevation_gain_m": 980,
    "recommended": true
  },
  {
    "filename": "/image/IMG_20250812_165815364_HDR.webp",
    "location": "to be filled",
    "short": "to be filled",
    "province": "to be filled",
    "country": "to be filled",
    "date": "12-08-2025",
    "time": "16:58",
    "coordinates": [49.2329, 20.0089],
    "height": 2301.0,
    "difficulty": "mountain_hiking",
    "nearest_city": "to be filled",
    "hike_distance_km": 14.76,
    "elevation_gain_m": 1050,
    "recommended": true
  },
  {
    "filename": "/image/IMG_20250812_172905194_HDR_AE.webp",
    "location": "to be filled",
    "short": "to be filled",
    "province": "to be filled",
    "country": "to be filled",
    "date": "12-08-2025",
    "time": "17:29",
    "coordinates": [49.2324, 20.0237],
    "height": 2120.0,
    "difficulty": "demanding_mountain_hiking",
    "nearest_city": "to be filled",
    "hike_distance_km": 20.55,
    "elevation_gain_m": 1500,
    "recommended": false
  },
  {
    "filename": "/image/IMG_20250815_103558735_AE.webp",
    "location": "to be filled",
    "short": "to be filled",
    "province": "to be filled",
    "country": "to be filled",
    "date": "15-08-2025",
    "time": "10:35",
    "coordinates": [49.2327, 19.9912],
    "height": 2055.0,
    "difficulty": "mountain_hiking",
    "nearest_city": "to be filled",
    "hike_distance_km": 10.62,
    "elevation_gain_m": 870,
    "recommended": false
  },
  {
    "filename": "/image/IMG_20250817_155838169_HDR_AE.webp",
    "location": "to be filled",
    "short": "to be filled",
    "province": "to be filled",
    "country": "to be filled",
    "date": "17-08-2025",
    "time": "15:58",
    "coordinates": [49.2336, 20.0081],
    "height": 2155.0,
    "difficulty": "mountain_hiking",
    "nearest_city": "to be filled",
    "hike_distance_km": 11.83,
    "elevation_gain_m": 970,
    "recommended": true
  },
  {
    "filename": "/image/IMG_20250817_184821075_HDR_AE.webp",
    "location": "to be filled",
    "short": "to be filled",
    "province": "to be filled",
    "country": "to be filled",
    "date": "17-08-2025",
    "time": "18:48",
    "coordinates": [49.2357, 20.0089],
    "height": 1624.0,
    "difficulty": "hiking",
    "nearest_city": "to be filled",
    "hike_distance_km": 6.95,
    "elevation_gain_m": 340,
    "recommended": false
  }
]
